[
  {
    "events": [
      {
        "name": "Muskogee Nation presents Mvskoke Etvlwv Festival",
        "location": {
          "street_address": "National Museum of the American Indian",
          "city": "Washington",
          "state": "DC"
        },
        "start_date": "2024/11/01",
        "end_date": "2024/11/02"
      },
      {
        "name": "D\u00eda de los Muertos",
        "location": {
          "street_address": "National Museum of the American Latino",
          "city": "Washington",
          "state": "DC"
        },
        "start_date": "2024/11/01",
        "end_date": "2024/11/02"
      },
      {
        "name": "The Negro Motorist Green Book Opening Celebration",
        "location": {
          "street_address": "MLK Memorial Library",
          "city": "Washington",
          "state": "DC"
        },
        "start_date": "2024/11/02",
        "end_date": "2024/11/03"
      },
      {
        "name": "Maryland STEM Festival",
        "location": {
          "street_address": "",
          "city": "Maryland",
          "state": ""
        },
        "start_date": "2024/11/01",
        "end_date": "2024/11/05"
      },
      {
        "name": "Sailing on a String",
        "location": {
          "street_address": "The Kennedy Center",
          "city": "Washington",
          "state": "DC"
        },
        "start_date": "2024/11/02",
        "end_date": "2024/11/05"
      },
      {
        "name": "Eyes on Reading: Julie Washington with Emily Hanford",
        "location": {
          "street_address": "Planet Word",
          "city": "Washington",
          "state": "DC"
        },
        "start_date": "2024/11/02",
        "end_date": "2024/11/02"
      },
      {
        "name": "Alexandria Fall-O-Ween",
        "location": {
          "street_address": "",
          "city": "Alexandria",
          "state": "VA"
        },
        "start_date": "2024/11/02",
        "end_date": "2024/11/02"
      },
      {
        "name": "Teddy Bear Wellness Clinic",
        "location": {
          "street_address": "Potomac Library",
          "city": "Potomac",
          "state": "MD"
        },
        "start_date": "2024/11/02",
        "end_date": "2024/11/02"
      },
      {
        "name": "Beatbox Dads",
        "location": {
          "street_address": "",
          "city": "Hyattsville",
          "state": "MD"
        },
        "start_date": "2024/11/03",
        "end_date": "2024/11/03"
      },
      {
        "name": "Pi\u00f1atas, Poems and Pampering for the Soul",
        "location": {
          "street_address": "La Cosecha",
          "city": "Washington",
          "state": "DC"
        },
        "start_date": "2024/11/03",
        "end_date": "2024/11/03"
      },
      {
        "name": "Alexandria Fall Fest",
        "location": {
          "street_address": "",
          "city": "Alexandria",
          "state": "VA"
        },
        "start_date": "2024/11/03",
        "end_date": "2024/11/03"
      }
    ],
    "node_type": "Post",
    "shortcode": "DByylM9xoFN",
    "id": "3491075120033071437",
    "__typename": "GraphVideo",
    "is_video": true,
    "date": null,
    "caption": null,
    "title": "",
    "viewer_has_liked": false,
    "edge_media_preview_like": {
      "count": -1,
      "edges": [
        {
          "node": {
            "id": "1440671370",
            "is_verified": false,
            "profile_pic_url": "https://scontent-iad3-1.cdninstagram.com/v/t51.2885-19/10547145_809041209128542_1418023888_a.jpg?stp=dst-jpg_s150x150&_nc_ht=scontent-iad3-1.cdninstagram.com&_nc_cat=110&_nc_ohc=WA5H5dOLod0Q7kNvgG45pGb&_nc_gid=81554907dc294e6a8d937c2fa9024841&edm=ANTKIIoBAAAA&ccb=7-5&oh=00_AYDoL3noWK4Q6w-r1Z43Mw7xvMol6iIXgqwhrNXGEQiRXQ&oe=6742E495&_nc_sid=d885a2",
            "username": "g_carrasco"
          }
        }
      ]
    },
    "accessibility_caption": null,
    "comments": null,
    "display_url": "https://scontent-iad3-1.cdninstagram.com/v/t51.29350-15/464895131_473345569059754_2550513285448614524_n.jpg?stp=dst-jpg_e15_fr_p1080x1080&_nc_ht=scontent-iad3-1.cdninstagram.com&_nc_cat=110&_nc_ohc=1s3dMKYpGrIQ7kNvgF9n-Rl&_nc_gid=81554907dc294e6a8d937c2fa9024841&edm=ANTKIIoBAAAA&ccb=7-5&oh=00_AYAXYPw3EDwhqCHjMLr-h4ggmzx5Tk88fKeLEkY7i-qsAQ&oe=6742C630&_nc_sid=d885a2",
    "owner_id": "47943581355",
    "owner_username": "4dmvkids",
    "owner_is_private": false,
    "owner_full_name": "Sarah | DC MD VA Kids Activities"
  },
  {
    "events": [
      {
        "name": "Harry Potter: A Forbidden Forest Experience",
        "location": {
          "street_address": "17195 Southern Planter Lane",
          "city": "Leesburg",
          "state": "VA",
          "zip_code": "20176",
          "latitude": 39.1417676,
          "longitude": -77.5726001
        },
        "start_date": null,
        "end_date": "2024/12/08",
        "start_time": "17:00",
        "end_time": "23:00",
        "last_entry": "21:45",
        "duration": "45 min - 1 hour",
        "ticket_price": "$45+",
        "discount_code": "4DMVKIDS10",
        "hashtags": [
          "feverus",
          "feverambassador",
          "4dmvkids",
          "dmvkids",
          "dcmom",
          "HPForbiddenForestExperience",
          "HarryPotter",
          "Leesburg",
          "HPForbiddenForestExperienceLeesburg"
        ]
      }
    ],
    "node_type": "Post",
    "shortcode": "DBr8xw4SmZt",
    "id": "3489149638857614957",
    "__typename": "GraphVideo",
    "is_video": true,
    "date": null,
    "caption": null,
    "title": "",
    "viewer_has_liked": false,
    "edge_media_preview_like": {
      "count": -1,
      "edges": [
        {
          "node": {
            "id": "41127694367",
            "is_verified": false,
            "profile_pic_url": "https://scontent-iad3-1.cdninstagram.com/v/t51.2885-19/433991939_933635164741316_3555757849013978829_n.jpg?stp=dst-jpg_s150x150&_nc_ht=scontent-iad3-1.cdninstagram.com&_nc_cat=108&_nc_ohc=OMIAMrRrm4EQ7kNvgH95dCw&_nc_gid=756aac8a8536432eb6b52c149eb240a0&edm=ANTKIIoBAAAA&ccb=7-5&oh=00_AYDLsDTynG4rgJFp4cBmpDrREjwFhqDuzTkS73z22SaxFQ&oe=6742E6FB&_nc_sid=d885a2",
            "username": "locdnlashdout"
          }
        }
      ]
    },
    "accessibility_caption": null,
    "comments": null,
    "display_url": "https://scontent-iad3-1.cdninstagram.com/v/t51.29350-15/464928701_1127630062119961_4177079216477651977_n.jpg?stp=dst-jpg_e15_fr_p1080x1080&_nc_ht=scontent-iad3-1.cdninstagram.com&_nc_cat=101&_nc_ohc=DYD5SIQnvJ4Q7kNvgFMfgbt&_nc_gid=756aac8a8536432eb6b52c149eb240a0&edm=ANTKIIoBAAAA&ccb=7-5&oh=00_AYA0qSGazdZJToEnko7jIGFuvYsQGxVe_2xjkqT51g6L-w&oe=6742ED29&_nc_sid=d885a2",
    "owner_id": "47943581355",
    "owner_username": "4dmvkids",
    "owner_is_private": false,
    "owner_full_name": "Sarah | DC MD VA Kids Activities"
  },
  {
    "events": [
      {
        "name": "Day of the Dead at the National Museum of the American Indian",
        "location": {
          "street_address": "Maryland Avenue Southwest",
          "city": "Washington",
          "state": "DC",
          "zip_code": "20024",
          "latitude": 38.88818305,
          "longitude": -77.01663726740057
        },
        "start_date": "2024/10/26",
        "end_date": "2024/10/27",
        "start_time": "",
        "end_time": "",
        "hashtags": []
      },
      {
        "name": "Harry Potter: A Forbidden Forest Experience",
        "location": {
          "street_address": "Washington Street",
          "city": "Leesburg",
          "state": "VA",
          "zip_code": "",
          "latitude": 38.935566800000004,
          "longitude": -76.73831460676494
        },
        "start_date": "2024/10/26",
        "end_date": "2024/12/08",
        "start_time": "",
        "end_time": "",
        "hashtags": []
      },
      {
        "name": "Movies - The Mighty Ducks",
        "location": {
          "street_address": "Bowie Ice Arena, Northview Drive",
          "city": "Bowie",
          "state": "MD",
          "zip_code": "20716",
          "latitude": 38.935566800000004,
          "longitude": -76.73831460676494
        },
        "start_date": "2024/10/25",
        "end_date": "2024/10/25",
        "start_time": "",
        "end_time": "",
        "hashtags": []
      },
      {
        "name": "Movies - The Nightmare Before Christmas",
        "location": {
          "street_address": "",
          "city": "Washington",
          "state": "DC",
          "zip_code": "",
          "latitude": 38.886,
          "longitude": -77.01
        },
        "start_date": "2024/10/26",
        "end_date": "2024/10/26",
        "start_time": "",
        "end_time": "",
        "hashtags": []
      },
      {
        "name": "Movies - Monster's Inc.",
        "location": {
          "street_address": "",
          "city": "Wheaton",
          "state": "MD",
          "zip_code": "20902",
          "latitude": 39.047752849999995,
          "longitude": -77.05144123298449
        },
        "start_date": "2024/10/26",
        "end_date": "2024/10/26",
        "start_time": "",
        "end_time": "",
        "hashtags": []
      },
      {
        "name": "Movies - Hocus Pocus 2",
        "location": {
          "street_address": "",
          "city": "National Harbor",
          "state": "MD",
          "zip_code": "",
          "latitude": 38.78935595,
          "longitude": -77.00663083273959
        },
        "start_date": "2024/10/27",
        "end_date": "2024/10/27",
        "start_time": "",
        "end_time": "",
        "hashtags": []
      },
      {
        "name": "Hill-O-ween",
        "location": {
          "street_address": "Eastern Market",
          "city": "Washington",
          "state": "DC",
          "zip_code": "20003",
          "latitude": 38.8842486,
          "longitude": -76.995823
        },
        "start_date": "2024/10/25",
        "end_date": "2024/10/25",
        "start_time": "",
        "end_time": "",
        "hashtags": []
      },
      {
        "name": "Merriweather District\u2019s Spook-tacular",
        "location": {
          "street_address": "",
          "city": "Columbia",
          "state": "MD",
          "zip_code": "",
          "latitude": 39.106,
          "longitude": -76.895
        },
        "start_date": "2024/10/25",
        "end_date": "2024/10/25",
        "start_time": "",
        "end_time": "",
        "hashtags": []
      },
      {
        "name": "DC Zinefest 2024",
        "location": {
          "street_address": "MLK Memorial Library",
          "city": "Washington",
          "state": "DC",
          "zip_code": "",
          "latitude": 38.888,
          "longitude": -77.02
        },
        "start_date": "2024/10/26",
        "end_date": "2024/10/26",
        "start_time": "",
        "end_time": "",
        "hashtags": []
      },
      {
        "name": "Kreeger Museum Open House",
        "location": {
          "street_address": "2401 Foxhall Road Northwest",
          "city": "Washington",
          "state": "DC",
          "zip_code": "20007",
          "latitude": 38.92188925,
          "longitude": -77.0887607183308
        },
        "start_date": "2024/10/26",
        "end_date": "2024/10/26",
        "start_time": "",
        "end_time": "",
        "hashtags": []
      },
      {
        "name": "Waterfront Art Festival",
        "location": {
          "street_address": "Washington, DC",
          "city": "Washington",
          "state": "DC",
          "zip_code": "",
          "latitude": 38.789,
          "longitude": -77.015
        },
        "start_date": "2024/10/26",
        "end_date": "2024/10/26",
        "start_time": "",
        "end_time": "",
        "hashtags": []
      },
      {
        "name": "Glen Echo Park Fall Frolic",
        "location": {
          "street_address": "7300 Fairway Hills",
          "city": "Glen Echo",
          "state": "MD",
          "zip_code": "20812",
          "latitude": 38.9669058,
          "longitude": -77.13945110531782
        },
        "start_date": "2024/10/26",
        "end_date": "2024/10/26",
        "start_time": "",
        "end_time": "",
        "hashtags": []
      },
      {
        "name": "All About Literacy Series: Dork Diaries Meet & Greet",
        "location": {
          "street_address": "35 Market Place",
          "city": "Baltimore",
          "state": "MD",
          "zip_code": "21202",
          "latitude": 39.2890365,
          "longitude": -76.60628380115512
        },
        "start_date": "2024/10/26",
        "end_date": "2024/10/26",
        "start_time": "",
        "end_time": "",
        "hashtags": []
      },
      {
        "name": "Halloween Howl! at Tall Ship Providence",
        "location": {
          "street_address": "",
          "city": "Alexandria",
          "state": "VA",
          "zip_code": "",
          "latitude": 38.882334,
          "longitude": -77.1710914
        },
        "start_date": "2024/10/26",
        "end_date": "2024/10/26",
        "start_time": "",
        "end_time": "",
        "hashtags": []
      },
      {
        "name": "Halloween Carnival",
        "location": {
          "street_address": "",
          "city": "Falls Church",
          "state": "VA",
          "zip_code": "22046",
          "latitude": 38.8254032,
          "longitude": -77.0585042
        },
        "start_date": "2024/10/26",
        "end_date": "2024/10/26",
        "start_time": "",
        "end_time": "",
        "hashtags": []
      },
      {
        "name": "Birdability Week Celebration",
        "location": {
          "street_address": "",
          "city": "Chevy Chase",
          "state": "MD",
          "zip_code": "20815",
          "latitude": 38.9813699,
          "longitude": -77.0849245
        },
        "start_date": "2024/10/27",
        "end_date": "2024/10/27",
        "start_time": "",
        "end_time": "",
        "hashtags": []
      },
      {
        "name": "Winnie the Pooh",
        "location": {
          "street_address": "4910 Auburn Avenue",
          "city": "Bethesda",
          "state": "MD",
          "zip_code": "20814",
          "latitude": 38.9896779,
          "longitude": -77.0994567
        },
        "start_date": "2024/10/27",
        "end_date": "2024/10/27",
        "start_time": "",
        "end_time": "",
        "hashtags": []
      },
      {
        "name": "Brunch with the Sanderson Sisters",
        "location": {
          "street_address": "",
          "city": "Riverdale Park",
          "state": "MD",
          "zip_code": "20052",
          "latitude": 38.9615103,
          "longitude": -76.9296515
        },
        "start_date": "2024/10/27",
        "end_date": "2024/10/27",
        "start_time": "",
        "end_time": "",
        "hashtags": []
      },
      {
        "name": "28th Annual Del Ray Halloween Parade",
        "location": {
          "street_address": "",
          "city": "Del Ray",
          "state": "VA",
          "zip_code": "22301",
          "latitude": 38.8254032,
          "longitude": -77.0585042
        },
        "start_date": "2024/10/27",
        "end_date": "2024/10/27",
        "start_time": "",
        "end_time": "",
        "hashtags": []
      }
    ],
    "node_type": "Post",
    "shortcode": "DBe0MdeyslO",
    "id": "3485452716338760014",
    "__typename": "GraphVideo",
    "is_video": true,
    "date": null,
    "caption": null,
    "title": "",
    "viewer_has_liked": false,
    "edge_media_preview_like": {
      "count": -1,
      "edges": [
        {
          "node": {
            "id": "17881597",
            "is_verified": false,
            "profile_pic_url": "https://scontent-iad3-2.cdninstagram.com/v/t51.2885-19/79806484_434980530718583_5023868399122382848_n.jpg?stp=dst-jpg_s150x150&_nc_ht=scontent-iad3-2.cdninstagram.com&_nc_cat=111&_nc_ohc=NhHJMQqVcIwQ7kNvgFZG4v9&_nc_gid=aa89b3fb21fc4037ad36a832edd7c6f2&edm=ANTKIIoBAAAA&ccb=7-5&oh=00_AYDbt4f01vVe9N2PsjaRNeu_fgol_JruT_1UwGzXBKR9wA&oe=6742E834&_nc_sid=d885a2",
            "username": "aliciaeknight"
          }
        }
      ]
    },
    "accessibility_caption": null,
    "comments": null,
    "display_url": "https://scontent-iad3-1.cdninstagram.com/v/t51.29350-15/464482432_1526150541359059_1000952393557436321_n.jpg?stp=dst-jpg_e15_fr_p1080x1080&_nc_ht=scontent-iad3-1.cdninstagram.com&_nc_cat=107&_nc_ohc=NccXkaIlbqUQ7kNvgH3EzHQ&_nc_gid=aa89b3fb21fc4037ad36a832edd7c6f2&edm=ANTKIIoBAAAA&ccb=7-5&oh=00_AYBkOMRyi3_ZPAihpLdzC0p0qDS8o9_u-4xAO_7tle_ATA&oe=6742D3C3&_nc_sid=d885a2",
    "owner_id": "47943581355",
    "owner_username": "4dmvkids",
    "owner_is_private": false,
    "owner_full_name": "Sarah | DC MD VA Kids Activities"
  },
  {
    "events": [
      {
        "name": "Christmas Happenings",
        "location": {
          "street_address": "",
          "city": "Montgomery",
          "state": "MD",
          "zip_code": "",
          "latitude": null,
          "longitude": null
        },
        "start_date": "2024-11-07",
        "end_date": "2024-11-11",
        "start_time": null,
        "end_time": null,
        "hashtags": [
          "dcEvents",
          "thingstododc",
          "washingtondc",
          "maryland",
          "Virginia",
          "dmv",
          "dcmoms",
          "eventsdc",
          "igdc",
          "dcfamily",
          "dmvfreeevents",
          "kidfriendlydc",
          "mydccool",
          "November",
          "Fall",
          "veteransday"
        ]
      },
      {
        "name": "Spider-Man Across the Spider-Verse Live in Concert",
        "location": {
          "street_address": "National Theatre",
          "city": "Washington",
          "state": "DC",
          "zip_code": "",
          "latitude": null,
          "longitude": null
        },
        "start_date": "2024-11-08",
        "end_date": "2024-11-09",
        "start_time": null,
        "end_time": null,
        "hashtags": [
          "dcEvents",
          "thingstododc",
          "washingtondc",
          "maryland",
          "Virginia",
          "dmv",
          "dcmoms",
          "eventsdc",
          "igdc",
          "dcfamily",
          "dmvfreeevents",
          "kidfriendlydc",
          "mydccool",
          "November",
          "Fall",
          "veteransday"
        ]
      },
      {
        "name": "The Lion King Jr.",
        "location": {
          "street_address": "Encore",
          "city": "Arlington",
          "state": "VA",
          "zip_code": "",
          "latitude": null,
          "longitude": null
        },
        "start_date": "2024-11-08",
        "end_date": "2024-11-24",
        "start_time": null,
        "end_time": null,
        "hashtags": [
          "dcEvents",
          "thingstododc",
          "washingtondc",
          "maryland",
          "Virginia",
          "dmv",
          "dcmoms",
          "eventsdc",
          "igdc",
          "dcfamily",
          "dmvfreeevents",
          "kidfriendlydc",
          "mydccool",
          "November",
          "Fall",
          "veteransday"
        ]
      },
      {
        "name": "Story Tapestries featuring Jamaal Mr. Root Collier",
        "location": {
          "street_address": "InterAct Story Theatre",
          "city": "",
          "state": "",
          "zip_code": "",
          "latitude": null,
          "longitude": null
        },
        "start_date": "2024-11-09",
        "end_date": "2024-11-10",
        "start_time": null,
        "end_time": null,
        "hashtags": [
          "dcEvents",
          "thingstododc",
          "washingtondc",
          "maryland",
          "Virginia",
          "dmv",
          "dcmoms",
          "eventsdc",
          "igdc",
          "dcfamily",
          "dmvfreeevents",
          "kidfriendlydc",
          "mydccool",
          "November",
          "Fall",
          "veteransday"
        ]
      },
      {
        "name": "Fake Cake Decorating",
        "location": {
          "street_address": "Dov and Company",
          "city": "Potomac",
          "state": "MD",
          "zip_code": "",
          "latitude": null,
          "longitude": null
        },
        "start_date": "2024-11-08",
        "end_date": "2024-11-08",
        "start_time": null,
        "end_time": null,
        "hashtags": [
          "dcEvents",
          "thingstododc",
          "washingtondc",
          "maryland",
          "Virginia",
          "dmv",
          "dcmoms",
          "eventsdc",
          "igdc",
          "dcfamily",
          "dmvfreeevents",
          "kidfriendlydc",
          "mydccool",
          "November",
          "Fall",
          "veteransday"
        ]
      },
      {
        "name": "November Family Day: Veterans Day",
        "location": {
          "street_address": "Library of Congress",
          "city": "Washington",
          "state": "DC",
          "zip_code": "",
          "latitude": null,
          "longitude": null
        },
        "start_date": "2024-11-09",
        "end_date": "2024-11-09",
        "start_time": null,
        "end_time": null,
        "hashtags": [
          "dcEvents",
          "thingstododc",
          "washingtondc",
          "maryland",
          "Virginia",
          "dmv",
          "dcmoms",
          "eventsdc",
          "igdc",
          "dcfamily",
          "dmvfreeevents",
          "kidfriendlydc",
          "mydccool",
          "November",
          "Fall",
          "veteransday"
        ]
      },
      {
        "name": "The Phillips Plays",
        "location": {
          "street_address": "Phillips Collection",
          "city": "Washington",
          "state": "DC",
          "zip_code": "",
          "latitude": null,
          "longitude": null
        },
        "start_date": "2024-11-09",
        "end_date": "2024-11-09",
        "start_time": null,
        "end_time": null,
        "hashtags": [
          "dcEvents",
          "thingstododc",
          "washingtondc",
          "maryland",
          "Virginia",
          "dmv",
          "dcmoms",
          "eventsdc",
          "igdc",
          "dcfamily",
          "dmvfreeevents",
          "kidfriendlydc",
          "mydccool",
          "November",
          "Fall",
          "veteransday"
        ]
      },
      {
        "name": "Adventures in Literacy: A Heart Project",
        "location": {
          "street_address": "Sankofa Cafe",
          "city": "Washington",
          "state": "DC",
          "zip_code": "",
          "latitude": null,
          "longitude": null
        },
        "start_date": "2024-11-09",
        "end_date": "2024-11-09",
        "start_time": null,
        "end_time": null,
        "hashtags": [
          "dcEvents",
          "thingstododc",
          "washingtondc",
          "maryland",
          "Virginia",
          "dmv",
          "dcmoms",
          "eventsdc",
          "igdc",
          "dcfamily",
          "dmvfreeevents",
          "kidfriendlydc",
          "mydccool",
          "November",
          "Fall",
          "veteransday"
        ]
      },
      {
        "name": "National Cryptologic Museum's STEM Day",
        "location": {
          "street_address": "National Cryptologic Museum",
          "city": "",
          "state": "",
          "zip_code": "",
          "latitude": null,
          "longitude": null
        },
        "start_date": "2024-11-09",
        "end_date": "2024-11-09",
        "start_time": null,
        "end_time": null,
        "hashtags": [
          "dcEvents",
          "thingstododc",
          "washingtondc",
          "maryland",
          "Virginia",
          "dmv",
          "dcmoms",
          "eventsdc",
          "igdc",
          "dcfamily",
          "dmvfreeevents",
          "kidfriendlydc",
          "mydccool",
          "November",
          "Fall",
          "veteransday"
        ]
      },
      {
        "name": "Maryland STEM Career Fair for Girls & Morgan State STEM Expo",
        "location": {
          "street_address": "",
          "city": "PG County",
          "state": "MD",
          "zip_code": "",
          "latitude": null,
          "longitude": null
        },
        "start_date": "2024-11-09",
        "end_date": "2024-11-09",
        "start_time": null,
        "end_time": null,
        "hashtags": [
          "dcEvents",
          "thingstododc",
          "washingtondc",
          "maryland",
          "Virginia",
          "dmv",
          "dcmoms",
          "eventsdc",
          "igdc",
          "dcfamily",
          "dmvfreeevents",
          "kidfriendlydc",
          "mydccool",
          "November",
          "Fall",
          "veteransday"
        ]
      },
      {
        "name": "Education Fair",
        "location": {
          "street_address": "",
          "city": "PG County",
          "state": "MD",
          "zip_code": "",
          "latitude": null,
          "longitude": null
        },
        "start_date": "2024-11-09",
        "end_date": "2024-11-09",
        "start_time": null,
        "end_time": null,
        "hashtags": [
          "dcEvents",
          "thingstododc",
          "washingtondc",
          "maryland",
          "Virginia",
          "dmv",
          "dcmoms",
          "eventsdc",
          "igdc",
          "dcfamily",
          "dmvfreeevents",
          "kidfriendlydc",
          "mydccool",
          "November",
          "Fall",
          "veteransday"
        ]
      },
      {
        "name": "Animal Encounters",
        "location": {
          "street_address": "Potomac Overlook Regional Park",
          "city": "Arlington",
          "state": "VA",
          "zip_code": "",
          "latitude": null,
          "longitude": null
        },
        "start_date": "2024-11-10",
        "end_date": "2024-11-10",
        "start_time": null,
        "end_time": null,
        "hashtags": [
          "dcEvents",
          "thingstododc",
          "washingtondc",
          "maryland",
          "Virginia",
          "dmv",
          "dcmoms",
          "eventsdc",
          "igdc",
          "dcfamily",
          "dmvfreeevents",
          "kidfriendlydc",
          "mydccool",
          "November",
          "Fall",
          "veteransday"
        ]
      },
      {
        "name": "Sunday Workshops",
        "location": {
          "street_address": "Kid Museum",
          "city": "Bethesda",
          "state": "MD",
          "zip_code": "",
          "latitude": null,
          "longitude": null
        },
        "start_date": "2024-11-10",
        "end_date": "2024-11-10",
        "start_time": null,
        "end_time": null,
        "hashtags": [
          "dcEvents",
          "thingstododc",
          "washingtondc",
          "maryland",
          "Virginia",
          "dmv",
          "dcmoms",
          "eventsdc",
          "igdc",
          "dcfamily",
          "dmvfreeevents",
          "kidfriendlydc",
          "mydccool",
          "November",
          "Fall",
          "veteransday"
        ]
      },
      {
        "name": "Holiday Movie Elf",
        "location": {
          "street_address": "",
          "city": "National Harbor",
          "state": "MD",
          "zip_code": "",
          "latitude": null,
          "longitude": null
        },
        "start_date": "2024-11-10",
        "end_date": "2024-11-10",
        "start_time": null,
        "end_time": null,
        "hashtags": [
          "dcEvents",
          "thingstododc",
          "washingtondc",
          "maryland",
          "Virginia",
          "dmv",
          "dcmoms",
          "eventsdc",
          "igdc",
          "dcfamily",
          "dmvfreeevents",
          "kidfriendlydc",
          "mydccool",
          "November",
          "Fall",
          "veteransday"
        ]
      }
    ],
    "node_type": "Post",
    "shortcode": "DCDBqJsSPyR",
    "id": "3495645030440828049",
    "__typename": "GraphVideo",
    "is_video": true,
    "date": null,
    "caption": null,
    "title": "",
    "viewer_has_liked": false,
    "edge_media_preview_like": {
      "count": -1,
      "edges": [
        {
          "node": {
            "id": "8154331919",
            "is_verified": false,
            "profile_pic_url": "https://scontent-iad3-1.cdninstagram.com/v/t51.2885-19/326087955_853896715827578_7067686560962038662_n.jpg?stp=dst-jpg_s150x150&_nc_ht=scontent-iad3-1.cdninstagram.com&_nc_cat=102&_nc_ohc=4I2JyEM7wZkQ7kNvgHvhQQ9&_nc_gid=8f040110528c4440b63c34bf35195219&edm=ANTKIIoBAAAA&ccb=7-5&oh=00_AYDACYhMrOpW-kDN-3XP_KDy2Ga4WVBvnPwg9_8vZZvVcQ&oe=6742EDF2&_nc_sid=d885a2",
            "username": "encore_tap"
          }
        }
      ]
    },
    "accessibility_caption": null,
    "comments": null,
    "display_url": "https://scontent-iad3-2.cdninstagram.com/v/t51.29350-15/466000035_902474341551672_4002027715362479049_n.jpg?stp=dst-jpg_e15_fr_p1080x1080&_nc_ht=scontent-iad3-2.cdninstagram.com&_nc_cat=100&_nc_ohc=I2MUFgvEzC4Q7kNvgHgZL2Q&_nc_gid=8f040110528c4440b63c34bf35195219&edm=ANTKIIoBAAAA&ccb=7-5&oh=00_AYCb0hwO6ee5h4JjyaIBV4EoofKb9yYlZgkpXsxwSG56uw&oe=6742F211&_nc_sid=d885a2",
    "owner_id": "47943581355",
    "owner_username": "4dmvkids",
    "owner_is_private": false,
    "owner_full_name": "Sarah | DC MD VA Kids Activities"
  },
  {
    "events": [
      {
        "name": "Family Day at the U.S. Library of Congress",
        "location": {
          "street_address": "Thomas Jefferson Building, Library of Congress",
          "city": "Washington",
          "state": "DC",
          "zip_code": "",
          "latitude": 38.8950368,
          "longitude": -77.0365427
        },
        "start_date": "2024/12/26",
        "end_date": "2024/12/28",
        "start_time": "",
        "end_time": "",
        "hashtags": [
          "VeteransDay",
          "4dmvkids",
          "dmvkids",
          "libraryofcongress",
          "victorygardens",
          "wwwii",
          "wwi",
          "familyactivity",
          "dcfamily",
          "dcmom"
        ]
      }
    ],
    "node_type": "Post",
    "shortcode": "DCP5jplyui8",
    "id": "3499268573980453052",
    "__typename": "GraphVideo",
    "is_video": true,
    "date": 1731365441,
    "caption": "Read me | Family Day at the U.S. Library of Congress \n\n\ud83c\uddfa\ud83c\uddf8 Happy Veterans Day! This past Saturday we visited the Thomas Jefferson Building of the Library of Congress for their monthly Family Day activity. \n\nEach month, there\u2019s a different theme with activities. November\u2019s theme was \u201cFamilies on the Home Front in WWI and WWII\u201d for Veterans Day, where kids created their own Victory Garden. \n\n\ud83e\udd55 The \u201cgarden\u201d came with a plant cup and crafting materials to create the garden and seeds once done. \n\nTo go along with the theme, the Library also handed out pamphlets to further educate kids on rationing during the wars and additional exhibits to explore at the Library that related to the theme. \n\n\ud83d\uddd3\ufe0f The next Family Day will be a Winter Holiday Celebration over three days, December 26th - 28th. Kids will be able to make their own holiday cards and bookmarks! Free timed tickets are required to participate. \n\nWhen\u2019s the last time you visited @librarycongress? \n\n\u2014\n#VeteransDay #4dmvkids #dmvkids #libraryofcongress #victorygardens #wwwii #wwi #familyactivity #dcfamily #dcmom",
    "title": null,
    "viewer_has_liked": false,
    "edge_media_preview_like": {
      "count": 3
    },
    "accessibility_caption": null,
    "comments": 13,
    "display_url": "https://scontent-iad3-1.cdninstagram.com/v/t51.29350-15/466506026_883017280627712_3996934953128147665_n.jpg?stp=dst-jpg_e15&efg=eyJ2ZW5jb2RlX3RhZyI6ImltYWdlX3VybGdlbi4xMDgweDE5MjAuc2RyLmYyOTM1MC5kZWZhdWx0X2NvdmVyX2ZyYW1lIn0&_nc_ht=scontent-iad3-1.cdninstagram.com&_nc_cat=108&_nc_ohc=pUjOHNPY9zgQ7kNvgEP32Jj&_nc_gid=9faacca39e5e4a7c8fbfd9c735a47ade&edm=AEhyXUkBAAAA&ccb=7-5&ig_cache_key=MzQ5OTI2ODU3Mzk4MDQ1MzA1MjE5NDM1NDczNzk0NjQ2ODE%3D.3-ccb7-5&oh=00_AYAtpIeXfnD94DvsqU_iUmG-GmBTsvj-oSqvUaXzDBvUWw&oe=6742C152&_nc_sid=8f1549",
    "owner_id": "47943581355",
    "owner_username": "4dmvkids",
    "owner_is_private": false,
    "owner_full_name": "Sarah | DC MD VA Kids Activities"
  }
]